[{
    "_id": "000000000",
    "name": "USA & Foo Fighters",
    "reason": "There will be a concert of Foo Fighters in this time",
    "cover_url": "http://www.nationalgeographic.com/content/dam/travel/photos/000/000/5.ngsversion.0.adapt.1900.1.jpg",
    "locations": [{
        "start_date": "2017-11-12T19:30:00-0600",
        "end_date": "2017-11-16T19:30:00-0600",
        "place": {
            "name": "BOK Center",
            "location": {
                "city": "Tulsa",
                "country": "United States",
                "latitude": 36.152527521045,
                "longitude": -95.996000863401,
                "state": "OK",
                "street": "200 S Denver Ave",
                "zip": "74103"
            },
            "id": "13071830019"
        },
        "events": [{
            "type": "music",
            "place": {
                "name": "BOK Center",
                "location": {
                  "city": "Tulsa",
                  "country": "United States",
                  "latitude": 36.152527521045,
                  "longitude": -95.996000863401,
                  "state": "OK",
                  "street": "200 S Denver Ave",
                  "zip": "74103"
                },
                "id": "13071830019"
            },
            "name": "Foo Fighters",
            "start_time": "2017-11-15T19:30:00-0600",
            "id": "633877556802631",
            "performer": "Foo Fighters",
            "cover_url": "https://scontent.xx.fbcdn.net/v/t1.0-9/q82/s720x720/21740362_10159243228690545_8656551856005488463_n.jpg?oh=550d5c9b481b65d8eb266bc42ed3a7b9&oe=5A6FD1BC"
        }]
    },
    {
        "start_date": "2017-11-17T19:30:00-0600",
        "end_date": "2017-11-20T19:30:00-0600",
        "place": {
            "name": "The Warfield",
            "location": {
                "city": "San Francisco",
                "country": "United States",
                "latitude": 37.78268,
                "longitude": -122.41033,
                "state": "CA",
                "street": "982 Market St",
                "zip": "94102"
            },
            "id": "34363100821"
        },
        "events": []
    }]
},
{
    "_id": "000000000",
    "name": "USA & Foo Fighters",
    "reason": "There will be a concert of Foo Fighters in this time",
    "cover_url": "http://www.nationalgeographic.com/content/dam/travel/photos/000/000/5.ngsversion.0.adapt.1900.1.jpg",
    "locations": [{
        "start_date": "2017-11-12T19:30:00-0600",
        "end_date": "2017-11-16T19:30:00-0600",
        "place": {
            "name": "BOK Center",
            "location": {
                "city": "Tulsa",
                "country": "United States",
                "latitude": 36.152527521045,
                "longitude": -95.996000863401,
                "state": "OK",
                "street": "200 S Denver Ave",
                "zip": "74103"
            },
            "id": "13071830019"
        },
        "events": [{
            "type": "music",
            "place": {
                "name": "BOK Center",
                "location": {
                  "city": "Tulsa",
                  "country": "United States",
                  "latitude": 36.152527521045,
                  "longitude": -95.996000863401,
                  "state": "OK",
                  "street": "200 S Denver Ave",
                  "zip": "74103"
                },
                "id": "13071830019"
            },
            "name": "Foo Fighters",
            "start_time": "2017-11-15T19:30:00-0600",
            "id": "633877556802631",
            "performer": "Foo Fighters",
            "cover_url": "https://scontent.xx.fbcdn.net/v/t1.0-9/q82/s720x720/21740362_10159243228690545_8656551856005488463_n.jpg?oh=550d5c9b481b65d8eb266bc42ed3a7b9&oe=5A6FD1BC"
        }]
    },
    {
        "start_date": "2017-11-17T19:30:00-0600",
        "end_date": "2017-11-20T19:30:00-0600",
        "place": {
            "name": "The Warfield",
            "location": {
                "city": "San Francisco",
                "country": "United States",
                "latitude": 37.78268,
                "longitude": -122.41033,
                "state": "CA",
                "street": "982 Market St",
                "zip": "94102"
            },
            "id": "34363100821"
        },
        "events": []
    }]
}]